{
  "title": "Maleisië + Signapore",
  "slug": "maleisie-signapore",
  "description": "A trip to Singapore titled 'Maleisië + Signapore', from 2018-01-09 to 2018-01-26.",
  "startDate": "2018-01-09T00:00:00.000Z",
  "endDate": "2018-01-26T00:00:00.000Z",
  "period": "January 2018",
  "country": "Singapore",
  "budget": {
    "amount": 0,
    "currency": "EUR"
  },
  "itinerary": [
    {
      "blockType": "fullDay",
      "id": "import-1",
      "day": 1,
      "date": "09/01",
      "locationName": "Brussels",
      "location": {
        "coordinates": [
          4.3516970000000015,
          50.846557300000036
        ]
      },
      "description": null,
      "activities": null,
      "accommodation": null
    },
    {
      "blockType": "fullDay",
      "id": "import-2",
      "day": 2,
      "date": "09/01",
      "locationName": "Singapore",
      "location": {
        "coordinates": [
          103.85190720000003,
          1.2899174999999878
        ]
      },
      "description": null,
      "activities": null,
      "accommodation": null
    },
    {
      "blockType": "fullDay",
      "id": "import-3",
      "day": 3,
      "date": "12/01",
      "locationName": "Malacca City",
      "location": {
        "coordinates": [
          102.24866509999998,
          2.1942647000000424
        ]
      },
      "description": null,
      "activities": null,
      "accommodation": null
    },
    {
      "blockType": "fullDay",
      "id": "import-4",
      "day": 4,
      "date": "13/01",
      "locationName": "Kuala Lumpur",
      "location": {
        "coordinates": [
          101.69423710000001,
          3.1516964000000005
        ]
      },
      "description": null,
      "activities": null,
      "accommodation": null
    },
    {
      "blockType": "fullDay",
      "id": "import-5",
      "day": 5,
      "date": "15/01",
      "locationName": "Batu Caves",
      "location": {
        "coordinates": [
          101.6833464,
          3.236914799999958
        ]
      },
      "description": null,
      "activities": null,
      "accommodation": null
    },
    {
      "blockType": "fullDay",
      "id": "import-6",
      "day": 6,
      "date": "15/01",
      "locationName": "Pangkor Island",
      "location": {
        "coordinates": [
          100.54574400107282,
          4.23712188173022
        ]
      },
      "description": null,
      "activities": null,
      "accommodation": null
    },
    {
      "blockType": "fullDay",
      "id": "import-7",
      "day": 7,
      "date": "18/01",
      "locationName": "Cameron Highlands",
      "location": {
        "coordinates": [
          101.37641445614713,
          4.467229996234989
        ]
      },
      "description": null,
      "activities": null,
      "accommodation": null
    },
    {
      "blockType": "fullDay",
      "id": "import-8",
      "day": 8,
      "date": "21/01",
      "locationName": "George Town",
      "location": {
        "coordinates": [
          100.32873519999998,
          5.414161899999978
        ]
      },
      "description": null,
      "activities": null,
      "accommodation": null
    },
    {
      "blockType": "fullDay",
      "id": "import-9",
      "day": 9,
      "date": "23/01",
      "locationName": "Langkawi Island",
      "location": {
        "coordinates": [
          99.79298506999999,
          6.368260599999975
        ]
      },
      "description": null,
      "activities": null,
      "accommodation": null
    },
    {
      "blockType": "fullDay",
      "id": "import-10",
      "day": 10,
      "date": "25/01",
      "locationName": "Pulau Payar",
      "location": {
        "coordinates": [
          100.04007882999997,
          6.062551449999993
        ]
      },
      "description": null,
      "activities": null,
      "accommodation": null
    },
    {
      "blockType": "fullDay",
      "id": "import-11",
      "day": 11,
      "date": "26/01",
      "locationName": "Singapore",
      "location": {
        "coordinates": [
          103.8194992,
          1.3571069999999774
        ]
      },
      "description": null,
      "activities": null,
      "accommodation": null
    },
    {
      "blockType": "fullDay",
      "id": "import-12",
      "day": 12,
      "date": "26/01",
      "locationName": "Brussels",
      "location": {
        "coordinates": [
          4.3516970000000015,
          50.846557300000036
        ]
      },
      "description": null,
      "activities": null,
      "accommodation": null
    }
  ],
  "sourceFile": "maleisie-signapore.yaml",
  "importedAt": "2025-10-21T21:00:50.258Z"
}