{
  "title": "Noord-Italië",
  "slug": "noord-italie",
  "description": "A trip to Italy titled 'Noord-Italië', from 2019-09-07 to 2019-09-22.",
  "startDate": "2019-09-07T00:00:00.000Z",
  "endDate": "2019-09-22T00:00:00.000Z",
  "period": "September 2019",
  "country": "Italy",
  "budget": {
    "amount": 0,
    "currency": "EUR"
  },
  "itinerary": [
    {
      "blockType": "fullDay",
      "id": "import-1",
      "day": 1,
      "date": "07/09",
      "locationName": "Antwerp",
      "location": {
        "coordinates": [
          4.399708099999998,
          51.221109700000014
        ]
      },
      "description": null,
      "activities": null,
      "accommodation": null
    },
    {
      "blockType": "fullDay",
      "id": "import-2",
      "day": 2,
      "date": "07/09",
      "locationName": "Comomeer",
      "location": {
        "coordinates": [
          9.27445821617556,
          46.14075322428532
        ]
      },
      "description": null,
      "activities": null,
      "accommodation": null
    },
    {
      "blockType": "fullDay",
      "id": "import-3",
      "day": 3,
      "date": "10/09",
      "locationName": "Milan",
      "location": {
        "coordinates": [
          9.190640179424378,
          45.46685707056621
        ]
      },
      "description": null,
      "activities": null,
      "accommodation": null
    },
    {
      "blockType": "fullDay",
      "id": "import-4",
      "day": 4,
      "date": "10/09",
      "locationName": "Cinque Terre",
      "location": {
        "coordinates": [
          9.71325010000001,
          44.1222144
        ]
      },
      "description": null,
      "activities": null,
      "accommodation": null
    },
    {
      "blockType": "fullDay",
      "id": "import-5",
      "day": 5,
      "date": "12/09",
      "locationName": "Portofino",
      "location": {
        "coordinates": [
          9.209344600000037,
          44.3036653
        ]
      },
      "description": null,
      "activities": null,
      "accommodation": null
    },
    {
      "blockType": "fullDay",
      "id": "import-6",
      "day": 6,
      "date": "13/09",
      "locationName": "Iseo",
      "location": {
        "coordinates": [
          10.051048900000012,
          45.659555399999995
        ]
      },
      "description": null,
      "activities": null,
      "accommodation": null
    },
    {
      "blockType": "fullDay",
      "id": "import-7",
      "day": 7,
      "date": "15/09",
      "locationName": "Corte Franca",
      "location": {
        "coordinates": [
          10.006468100000006,
          45.637417199999994
        ]
      },
      "description": null,
      "activities": null,
      "accommodation": null
    },
    {
      "blockType": "fullDay",
      "id": "import-8",
      "day": 8,
      "date": "16/09",
      "locationName": "Santa Crestina",
      "location": {
        "coordinates": [
          11.71549060000001,
          46.559069699999995
        ]
      },
      "description": null,
      "activities": null,
      "accommodation": null
    },
    {
      "blockType": "fullDay",
      "id": "import-9",
      "day": 9,
      "date": "18/09",
      "locationName": "Cortina d'Ampezzo",
      "location": {
        "coordinates": [
          12.13735059999999,
          46.538333200000025
        ]
      },
      "description": null,
      "activities": null,
      "accommodation": null
    },
    {
      "blockType": "fullDay",
      "id": "import-10",
      "day": 10,
      "date": "20/09",
      "locationName": "Munich",
      "location": {
        "coordinates": [
          11.575382200000005,
          48.137107900000025
        ]
      },
      "description": null,
      "activities": null,
      "accommodation": null
    },
    {
      "blockType": "fullDay",
      "id": "import-11",
      "day": 11,
      "date": "21/09",
      "locationName": "Antwerp",
      "location": {
        "coordinates": [
          4.399708099999998,
          51.221109700000014
        ]
      },
      "description": null,
      "activities": null,
      "accommodation": null
    }
  ],
  "sourceFile": "noord-italie.yaml",
  "importedAt": "2025-10-21T21:00:50.260Z"
}