title: Noord-Italië
url_key: noord-italie
description: A trip to Italy titled 'Noord-Italië', from 2019-09-07 to 2019-09-22.
start_date: '2019-09-07'
end_date: '2019-09-22'
country: Italy
budget:
  total: 0
  currency: EUR
travel_itinerary:
- day: 1
  date: 07/09
  location_name: Antwerp
  location_gps_lat: 51.221109700000014
  location_gps_lon: 4.399708099999998
  activities: []
  accommodation: ''
- day: 2
  date: 07/09
  location_name: Comomeer
  location_gps_lat: 46.14075322428532
  location_gps_lon: 9.27445821617556
  activities: []
  accommodation: ''
- day: 3
  date: 10/09
  location_name: Milan
  location_gps_lat: 45.46685707056621
  location_gps_lon: 9.190640179424378
  activities: []
  accommodation: ''
- day: 4
  date: 10/09
  location_name: Cinque Terre
  location_gps_lat: 44.1222144
  location_gps_lon: 9.71325010000001
  activities: []
  accommodation: ''
- day: 5
  date: 12/09
  location_name: Portofino
  location_gps_lat: 44.3036653
  location_gps_lon: 9.209344600000037
  activities: []
  accommodation: ''
- day: 6
  date: 13/09
  location_name: Iseo
  location_gps_lat: 45.659555399999995
  location_gps_lon: 10.051048900000012
  activities: []
  accommodation: ''
- day: 7
  date: 15/09
  location_name: Corte Franca
  location_gps_lat: 45.637417199999994
  location_gps_lon: 10.006468100000006
  activities: []
  accommodation: ''
- day: 8
  date: 16/09
  location_name: Santa Crestina
  location_gps_lat: 46.559069699999995
  location_gps_lon: 11.71549060000001
  activities: []
  accommodation: ''
- day: 9
  date: 18/09
  location_name: Cortina d'Ampezzo
  location_gps_lat: 46.538333200000025
  location_gps_lon: 12.13735059999999
  activities: []
  accommodation: ''
- day: 10
  date: 20/09
  location_name: Munich
  location_gps_lat: 48.137107900000025
  location_gps_lon: 11.575382200000005
  activities: []
  accommodation: ''
- day: 11
  date: 21/09
  location_name: Antwerp
  location_gps_lat: 51.221109700000014
  location_gps_lon: 4.399708099999998
  activities: []
  accommodation: ''
